[{"temp":9.82,"city":"Berlin","lat":52.24,"long":13.14},{"temp":10.48,"city":"Chicago","lat":42.59,"long":-87.27},{"temp":13.83,"city":"Istanbul","lat":40.99,"long":29.82},{"temp":7.84,"city":"Kiev","lat":50.63,"long":31.69},{"temp":10.24,"city":"London","lat":52.24,"long":0},{"temp":12.01,"city":"Madrid","lat":40.99,"long":-4.26},{"temp":4.99,"city":"Montreal","lat":45.81,"long":-72.69},{"temp":4.84,"city":"Moscow","lat":55.45,"long":36.85},{"temp":10.07,"city":"New York","lat":40.99,"long":-74.56},{"temp":11.17,"city":"Paris","lat":49.03,"long":2.45},{"temp":12.52,"city":"Rome","lat":42.59,"long":13.09},{"temp":4.72,"city":"Saint Petersburg","lat":60.27,"long":29.19},{"temp":6.29,"city":"Toronto","lat":44.2,"long":-80.5}]