[{"temp":0.77,"city":"Abidjan","lat":5.63,"long":-3.23},{"temp":0.49,"city":"Addis Abeba","lat":8.84,"long":38.11},{"temp":0.79,"city":"Ahmadabad","lat":23.31,"long":72.52},{"temp":0.46,"city":"Aleppo","lat":36.17,"long":37.79},{"temp":0.58,"city":"Alexandria","lat":31.35,"long":30.16},{"temp":0.23,"city":"Ankara","lat":39.38,"long":33.29},{"temp":0.63,"city":"Baghdad","lat":32.95,"long":45},{"temp":0.73,"city":"Bangalore","lat":12.05,"long":77.26},{"temp":0.8,"city":"Bangkok","lat":13.66,"long":99.91},{"temp":0.62,"city":"Belo Horizonte","lat":-20.09,"long":-44.36},{"temp":0.22,"city":"Berlin","lat":52.24,"long":13.14},{"temp":0.55,"city":"Bogotá","lat":4.02,"long":-74.73},{"temp":0.79,"city":"Bombay","lat":18.48,"long":72.68},{"temp":0.63,"city":"Brasília","lat":-15.27,"long":-47.5},{"temp":0.62,"city":"Cairo","lat":29.74,"long":31.38},{"temp":0.76,"city":"Calcutta","lat":23.31,"long":88.25},{"temp":0.61,"city":"Cali","lat":4.02,"long":-76.34},{"temp":0.43,"city":"Cape Town","lat":-32.95,"long":18.19},{"temp":0.47,"city":"Casablanca","lat":32.95,"long":-6.7},{"temp":0.08,"city":"Changchun","lat":44.2,"long":125.22},{"temp":0.26,"city":"Chengdu","lat":31.35,"long":103.66},{"temp":0.27,"city":"Chicago","lat":42.59,"long":-87.27},{"temp":0.46,"city":"Chongqing","lat":29.74,"long":107.08},{"temp":0.71,"city":"Dakar","lat":15.27,"long":-17.5},{"temp":0.24,"city":"Dalian","lat":39.38,"long":120.69},{"temp":0.75,"city":"Dar Es Salaam","lat":-7.23,"long":39.73},{"temp":0.76,"city":"Delhi","lat":28.13,"long":77.27},{"temp":0.75,"city":"Dhaka","lat":23.31,"long":90},{"temp":0.58,"city":"Durban","lat":-29.74,"long":31.38},{"temp":0.73,"city":"Faisalabad","lat":31.35,"long":73.51},{"temp":0.62,"city":"Gizeh","lat":29.74,"long":31.38},{"temp":0.61,"city":"Guangzhou","lat":23.31,"long":112.72},{"temp":0.56,"city":"Harare","lat":-18.48,"long":30.42},{"temp":0.04,"city":"Harbin","lat":45.81,"long":125.77},{"temp":0.8,"city":"Ho Chi Minh City","lat":10.45,"long":107.18},{"temp":0.8,"city":"Hyderabad","lat":16.87,"long":78.7},{"temp":0.77,"city":"Ibadan","lat":7.23,"long":4.05},{"temp":0.33,"city":"Istanbul","lat":40.99,"long":29.82},{"temp":0.47,"city":"Izmir","lat":37.78,"long":26.44},{"temp":0.76,"city":"Jaipur","lat":26.52,"long":75.22},{"temp":0.76,"city":"Jakarta","lat":-5.63,"long":106.55},{"temp":0.82,"city":"Jiddah","lat":21.7,"long":38.94},{"temp":0.33,"city":"Jinan","lat":36.17,"long":117.35},{"temp":0.41,"city":"Kabul","lat":34.56,"long":70.05},{"temp":0.76,"city":"Kano","lat":12.05,"long":8.22},{"temp":0.73,"city":"Kanpur","lat":26.52,"long":80.6},{"temp":0.77,"city":"Karachi","lat":24.92,"long":67.39},{"temp":0.13,"city":"Kiev","lat":50.63,"long":31.69},{"temp":0.66,"city":"Kinshasa","lat":-4.02,"long":15.27},{"temp":0.78,"city":"Lagos","lat":5.63,"long":3.23},{"temp":0.73,"city":"Lahore","lat":31.35,"long":73.51},{"temp":0.73,"city":"Lakhnau","lat":26.52,"long":80.6},{"temp":0.23,"city":"London","lat":52.24,"long":0},{"temp":0.39,"city":"Los Angeles","lat":34.56,"long":-118.7},{"temp":0.65,"city":"Luanda","lat":-8.84,"long":13.78},{"temp":0.84,"city":"Madras","lat":13.66,"long":80.09},{"temp":0.29,"city":"Madrid","lat":40.99,"long":-4.26},{"temp":0.77,"city":"Manila","lat":15.27,"long":120.83},{"temp":0.33,"city":"Mashhad","lat":36.17,"long":59.67},{"temp":0.36,"city":"Melbourne","lat":-37.78,"long":144.41},{"temp":0.43,"city":"Mexico","lat":20.09,"long":-98.96},{"temp":0.8,"city":"Mogadishu","lat":2.41,"long":45.8},{"temp":0.08,"city":"Montreal","lat":45.81,"long":-72.69},{"temp":0.03,"city":"Moscow","lat":55.45,"long":36.85},{"temp":0.4,"city":"Nagoya","lat":34.56,"long":136.22},{"temp":0.76,"city":"Nagpur","lat":21.7,"long":78.75},{"temp":0.44,"city":"Nairobi","lat":-0.8,"long":36.16},{"temp":0.41,"city":"Nanjing","lat":31.35,"long":118.74},{"temp":0.76,"city":"New Delhi","lat":28.13,"long":77.27},{"temp":0.25,"city":"New York","lat":40.99,"long":-74.56},{"temp":0.27,"city":"Paris","lat":49.03,"long":2.45},{"temp":0.29,"city":"Peking","lat":39.38,"long":116.53},{"temp":0.73,"city":"Pune","lat":18.48,"long":74.37},{"temp":0.79,"city":"Rangoon","lat":16.87,"long":95.44},{"temp":0.71,"city":"Rio De Janeiro","lat":-23.31,"long":-42.82},{"temp":0.73,"city":"Riyadh","lat":24.92,"long":46.11},{"temp":0.32,"city":"Rome","lat":42.59,"long":13.09},{"temp":0.57,"city":"São Paulo","lat":-23.31,"long":-46.31},{"temp":0.04,"city":"Saint Petersburg","lat":60.27,"long":29.19},{"temp":0.73,"city":"Salvador","lat":-13.66,"long":-38.81},{"temp":0.12,"city":"Santiago","lat":-32.95,"long":-69.89},{"temp":0.76,"city":"Santo Domingo","lat":18.48,"long":-69.3},{"temp":0.26,"city":"Seoul","lat":37.78,"long":126.1},{"temp":0.42,"city":"Shanghai","lat":31.35,"long":120.63},{"temp":0.15,"city":"Shenyang","lat":40.99,"long":123.55},{"temp":0.78,"city":"Singapore","lat":0.8,"long":103.66},{"temp":0.78,"city":"Surabaya","lat":-7.23,"long":112.7},{"temp":0.79,"city":"Surat","lat":21.7,"long":73.56},{"temp":0.47,"city":"Sydney","lat":-34.56,"long":151.78},{"temp":0.63,"city":"Taipei","lat":24.92,"long":122.36},{"temp":0.17,"city":"Taiyuan","lat":37.78,"long":111.86},{"temp":0.28,"city":"Tangshan","lat":37.78,"long":113.9},{"temp":0.29,"city":"Tianjin","lat":39.38,"long":116.53},{"temp":0.33,"city":"Tokyo","lat":36.17,"long":139.23},{"temp":0.13,"city":"Toronto","lat":44.2,"long":-80.5},{"temp":0.87,"city":"Umm Durman","lat":15.27,"long":32.5},{"temp":0.45,"city":"Wuhan","lat":29.74,"long":114.46},{"temp":0.28,"city":"Xian","lat":34.56,"long":108.97},{"temp":0}]