temp,City,lat,long
0.25,Berlin,52.24,13.14
0.27,Chicago,42.59,-87.27
0.38,Istanbul,40.99,29.82
0.18,Kiev,50.63,31.69
0.26,London,52.24,-0.00
0.32,Madrid,40.99,-4.26
0.09,Montreal,45.81,-72.69
0.08,Moscow,55.45,36.85
0.25,New York,40.99,-74.56
0.29,Paris,49.03,2.45
0.33,Rome,42.59,13.09
0.08,Saint Petersburg,60.27,29.19
0.13,Toronto,44.20,-80.50
